WELL_NAME,UWI,BHI,COUNTRY,BASIN_NAME,OPERATOR,CLASS,Petrel Well Symbol,TCH_STAT,CONTENT,GEN_STATUS,SPUD_DT_YR,LTCOMP_DT,GRP_NAME,OP_ACRONYM,CONTRACT,BLOCK_NAME,FIELD_NAME,D_REF_TYPE,ELEV_REF_M,TD_M,DEV_TYPE,BLK_OP_ACR,TECH_STAT,GN_CONT,SPUD_DT_TX,WEL_ID,ALT_WNAME,W84_LAT_DG,W84_LON_DG,POINT_X,POINT_Y
Andrilovec Jug 1,HR00384970,HR0038497000,Croatia,Sava Sub-basin (Pannonian Basin),INA-Naftaplin,New-field wildcat,41,Plugged & abandoned,Oil,P&A/Susp Dry/Shows,2000,10/2/2000,INA NAFT,INA NAFT,Sava,Sava,,KB,109.00,2503.00,,,Abandoned,Dry/Shows,10 August 2000,100000366038,An J-1,45.79701500000,16.30981200000,485218.77,5073040.84
Antunovac 1,HR00384972,HR0038497200,Croatia,Drava Sub-basin (Pannonian Basin),INA-Naftaplin,New-field wildcat,26,Plugged & abandoned,Oil,P&A/Susp Dry/Shows,2012,12/10/2012,INA NAFT,INA NAFT,Istocna Slavonija,Istocna Slavonija,,KB,93.00,1984.00,Vertical,INA NAFT,Abandoned,Dry/Shows,21 October 2012,100000757811,Antu-1,45.49291500000,18.72535600000,673936.89,5041637.13
Bizovac 10,HR00385251,HR0038525100,Croatia,Drava Sub-basin (Pannonian Basin),INA-Naftaplin,Development,26,Plugged & abandoned,Oil,P&A/Susp Dry/Shows,1990,7/17/1990,INA NAFT,INA NAFT,,,Bizovac,KB,15.00,1950.00,,,Abandoned,Dry/Shows,22 June 1990,100000592750,Biz-10,45.58621700000,18.45772100000,652765.78,5051460.97
Brodisce 1,HR00385333,HR0038533300,Croatia,Sava Sub-basin (Pannonian Basin),INA-Naftaplin Zagreb,New-field wildcat,41,Plugged & abandoned,Oil,P&A/Susp Dry/Shows,1980,11/8/1980,INA,INA,,,,KB,100.00,3253.00,Vertical,,Abandoned,Dry/Shows,12 August 1980,100000109796,,45.53815600000,16.44913800000,496031.47,5044256.55
Cerje 2,HR00385450,HR0038545000,Croatia,Sava Sub-basin (Pannonian Basin),INA-Naftaplin Zagreb,New-field wildcat,26,Plugged & abandoned,Oil,P&A/Susp Dry/Shows,1954,3/10/1955,INA,INA,,,,KB,115.00,1987.80,,,Abandoned,Dry/Shows,31 August 1954,100000592910,Ce-2,45.69886700000,16.56613600000,505153.98,5062117.67
Dubranec 1,HR00385562,HR0038556200,Croatia,Sava Sub-basin (Pannonian Basin),INA-Naftaplin Zagreb,New-field wildcat,26,Plugged & abandoned,Oil,P&A/Susp Dry/Shows,1952,6/6/1952,INA,INA,,,,KB,157.00,997.00,,,Abandoned,Dry/Shows,20 February 1952,100000592984,Du-1,45.60778300000,15.96374000000,458174.86,5052132.95
Dubranec 2,HR00385563,HR0038556300,Croatia,Sava Sub-basin (Pannonian Basin),INA-Naftaplin Zagreb,New-field wildcat,26,Plugged & abandoned,Oil,P&A/Susp Dry/Shows,1952,9/10/1952,INA,INA,,,,KB,178.00,870.00,,,Abandoned,Dry/Shows,05 August 1952,100000592985,Du-2,45.63976700000,15.96183000000,458049.74,5055688.41
Dubranec 3,HR00385564,HR0038556400,Croatia,Sava Sub-basin (Pannonian Basin),INA-Naftaplin Zagreb,New-field wildcat,26,Plugged & abandoned,Oil,P&A/Susp Dry/Shows,1955,3/5/1956,INA,INA,,,,KB,145.00,1603.60,,,Abandoned,Dry/Shows,26 December 1955,100000592986,Du-3,45.63529300000,16.05044900000,464955.39,5055148.63
Dubrava 1,HR00381402,HR0038140200,Croatia,Sava Sub-basin (Pannonian Basin),INA-Naftaplin Zagreb,New-field wildcat,40,Plugged & abandoned,Oil,P&A/Susp Dry/Shows,1978,28902,INA,INA,,,,KB,169,2156,,,Abandoned,Dry/Shows,16 December 1978,100000592987,D-1,46,16,472599,5077981
Dubravka More 1,HR99999002,HR9999900200,Croatia,East Padan and Adriatic - South Adriatic-Durres,Texaco Netherlands Int'l Inc,New-field wildcat,26,Plugged & abandoned,Oil,P&A/Susp Dry/Shows,1988,5/9/1988,TEXACO 1,TEXACO NE,Dubrovnik Block,Dubrovnik Block,,RT,23.60,3759.00,Vertical,TEXACO NE,Abandoned,Dry/Shows,04 March 1988,100000110147,,42.33431900000,18.27344900000,646151.24,4689832.85
Dugo Selo Istok 1,HR00385571,HR0038557100,Croatia,Sava Sub-basin (Pannonian Basin),INA-Naftaplin Zagreb,Outpost,26,Plugged & abandoned,Oil,P&A/Susp Dry/Shows,1981,3/23/1981,INA,INA,,,Dugo Selo,KB,116.00,2462.50,Vertical,,Abandoned,Dry/Shows,21 January 1981,100000109703,DsI-1,45.82084500000,16.26303500000,481590.26,5075698.94
Ernestinevo 1,HR00385573,HR0038557300,Croatia,Drava Sub-basin (Pannonian Basin),INA-Naftaplin Zagreb,New-field wildcat,41,Plugged & abandoned,Oil,P&A/Susp Dry/Shows,1975,8/29/1975,INA,INA,,,Ernestinevo-2,KB,86.00,2573.00,,,Abandoned,Dry/Shows,01 August 1975,100000592990,Ern-1,45.44124200000,18.67127900000,669865.47,5035779.08
Farkasevac 1,HR00388363,HR0038836300,Croatia,Drava Sub-basin (Pannonian Basin),INA-Naftaplin Zagreb,New-field wildcat,26,Plugged & abandoned,Oil,P&A/Susp Dry/Shows,1964,10/13/1964,INA,INA,,,,KB,133.00,846.00,,,Abandoned,Dry/Shows,01 October 1964,100000592991,Fa-1,45.88450800000,16.65368000000,511931.77,5082758.45
Glavnicica 01,HR00381404,HR0038140400,Croatia,Sava Sub-basin (Pannonian Basin),INA-Naftaplin Zagreb,New-field wildcat,26,Plugged & abandoned,Oil,P&A/Susp Dry/Shows,1952,1/23/1953,INA,INA,,,,KB,123.00,1288.20,,,Abandoned,Dry/Shows,01 December 1952,100000593035,Gl-1,45.85337300000,16.22012800000,478268.84,5079324.79
Glavnicica 02,HR00385606,HR0038560600,Croatia,Sava Sub-basin (Pannonian Basin),INA-Naftaplin Zagreb,New-field wildcat,26,Plugged & abandoned,Oil,P&A/Susp Dry/Shows,1953,6/6/1953,INA,INA,,,,KB,135.00,1540.00,,,Abandoned,Dry/Shows,03 April 1953,100000593036,Gl-2,45.81550700000,16.25103700000,480656.11,5075108.53
Glavnicica 09,HR00388381,HR0038838100,Croatia,Sava Sub-basin (Pannonian Basin),INA-Naftaplin Zagreb,Development,26,Plugged & abandoned,Oil,P&A/Susp Dry/Shows,1956,10/28/1956,INA,INA,,,Dugo Selo,KB,141.00,1391.30,,,Abandoned,Dry/Shows,05 September 1956,100000593043,Gl-9,45.81702100000,16.24907900000,480504.47,5075277.26
Gospodica 1,HR00385691,HR0038569100,Croatia,Sava Sub-basin (Pannonian Basin),INA-Naftaplin Zagreb,New-field wildcat,26,Plugged & abandoned,Oil,P&A/Susp Dry/Shows,1967,8/2/1967,INA,INA,,,,,0.00,0.00,Vertical,,Abandoned,Dry/Shows,09 June 1967,100000109698,Gos-1,45.57728500000,16.39837100000,492072.20,5048608.78
Gospodica 3,HR00385694,HR0038569400,Croatia,Sava Sub-basin (Pannonian Basin),INA-Naftaplin Zagreb,New-field wildcat,26,Plugged & abandoned,Oil,P&A/Susp Dry/Shows,1978,8/10/1978,INA,INA,,,,,0.00,0.00,Vertical,,Abandoned,Dry/Shows,23 June 1978,100000109700,Gos-3,45.57422900000,16.37254100000,490055.81,5048272.04
Hlebine 1,HR00388407,HR0038840700,Croatia,Drava Sub-basin (Pannonian Basin),INA-Naftaplin Zagreb,New-field wildcat,40,Plugged & abandoned,Oil,P&A/Susp Dry/Shows,1964,1/25/1965,INA,INA,,,,KB,125.00,2837.70,,,Abandoned,Dry/Shows,20 October 1964,100000593151,Hle-1,46.11292600000,16.94682600000,534542.32,5108230.45
Hlebine 2,HR00388408,HR0038840800,Croatia,Drava Sub-basin (Pannonian Basin),INA-Naftaplin Zagreb,New-field wildcat,40,Plugged & abandoned,Oil,P&A/Susp Dry/Shows,1973,12/8/1973,INA,INA,,,,KB,126.00,2650.00,,,Abandoned,Dry/Shows,22 October 1973,100000593152,Hle-2,46.12352100000,16.93000100000,533235.42,5109400.83
Jarmine 1,HR00386151,HR0038615100,Croatia,Slavonian-Syrmia Sub-basin (Pannonian Basin),INA-Naftaplin Zagreb,New-field wildcat,26,Plugged & abandoned,Oil,P&A/Susp Dry/Shows,1957,5/10/1957,INA,INA,,,,KB,83.00,1438.20,,,Abandoned,Dry/Shows,29 March 1957,100000593585,Jar-1,45.29660000000,18.74115300000,675779.42,5019855.51
Jezevo 02DU,HR00386155,HR0038615500,Croatia,Sava Sub-basin (Pannonian Basin),INA-Naftaplin Zagreb,Outpost,36,Completed,Oil,Completed Oil & Gas,1984,5/31/1985,INA,INA,,,Jezevo,KB,6.00,3020.00,,,Completed,Oil & Gas,10 December 1984,100000593588,Jz-2DU,45.72916600000,16.30045100000,484472.25,5065502.18
Jezevo 04DU,HR00386159,HR0038615900,Croatia,Sava Sub-basin (Pannonian Basin),INA-Naftaplin Zagreb,Outpost,40,Plugged & abandoned,Oil,P&A/Susp Dry/Shows,1986,1/17/1987,INA,INA,,,Jezevo,KB,6.00,4001.00,,,Abandoned,Dry/Shows,04 July 1986,100000593591,Jz-4DU,45.73403400000,16.30845500000,485096.51,5066041.66
Jezevo 06,HR00386162,HR0038616200,Croatia,Sava Sub-basin (Pannonian Basin),INA-Naftaplin Zagreb,Outpost,26,Plugged & abandoned,Oil,P&A/Susp Dry/Shows,1967,10/22/1967,INA,INA,,,Jezevo,KB,104.00,2051.50,,,Abandoned,Dry/Shows,28 September 1967,100000593594,Jz-6,45.73693600000,16.29537000000,484078.99,5066366.70
Johovac 1,HR00386182,HR0038618200,Croatia,Sava Sub-basin (Pannonian Basin),INA-Naftaplin Zagreb,New-field wildcat,26,Plugged & abandoned,Oil,P&A/Susp Dry/Shows,1978,7/1/1978,INA,INA,,,,,0.00,2500.00,Vertical,,Abandoned,Dry/Shows,1978,100000109663,,45.54841500000,16.73749500000,518548.04,5045422.82
KBN-Zagreb 2,HR00381329,HR0038132900,Croatia,Sava Sub-basin (Pannonian Basin),INA-Naftaplin Zagreb,Geothermal,51,Completed,Oil,Water,1984,10/31/1984,INA,INA,,,,KB,121.00,897.50,Vertical,,Completed,Water,25 August 1984,100000109566,KBN-ZGB-2,45.79973800000,15.93258000000,455895.57,5073482.46
Koprivnicki Bregi 1,HR00424182,HR0042418200,Croatia,Drava Sub-basin (Pannonian Basin),INA-Naftaplin Zagreb,New-field wildcat,26,Plugged & abandoned,Oil,P&A/Susp Dry/Shows,1979,7/1/1980,INA,INA,,,,,0.00,3200.00,,,Abandoned,Dry/Shows,1979,100000121032,,46.13307500000,16.91158500000,531806.68,5110455.15
Korenovo 1,HR00386402,HR0038640200,Croatia,Drava Sub-basin (Pannonian Basin),INA-Naftaplin Zagreb,New-field wildcat,26,Plugged & abandoned,Oil,P&A/Susp Dry/Shows,1958,4/7/1958,INA,INA,,,,KB,115.00,1457.90,,,Abandoned,Dry/Shows,11 March 1958,100000593819,Kor-1,45.85439200000,16.81964000000,524826.41,5079449.63
Kravarsko 1,HR00386475,HR0038647500,Croatia,Sava Sub-basin (Pannonian Basin),INA-Naftaplin Zagreb,New-field wildcat,26,Plugged & abandoned,Oil,P&A/Susp Dry/Shows,1935,8/31/1935,INA,INA,,,,KB,186.00,1025.00,,,Abandoned,Dry/Shows,27 June 1935,100000593878,Kra-1,45.58344800000,16.04214000000,464274.69,5049390.63
Krizevci 1,HR00384916,HR0038491600,Croatia,Drava Sub-basin (Pannonian Basin),INA-Naftaplin Zagreb,New-field wildcat,26,Plugged & abandoned,Oil,P&A/Susp Dry/Shows,1962,4/26/1962,INA,INA,,,,KB,175.00,821.80,,,Abandoned,Dry/Shows,28 March 1962,100000593882,Ki-1,46.01465800000,16.59676300000,507496.51,5097216.29
Lekenik 1,HR00386566,HR0038656600,Croatia,Sava Sub-basin (Pannonian Basin),INA-Naftaplin Zagreb,New-field wildcat,26,Plugged & abandoned,Oil,P&A/Susp Dry/Shows,1964,2/5/1965,INA,INA,,,,KB,109.00,1820.30,,,Abandoned,Dry/Shows,21 December 1964,100000593951,Lek-1,45.64092200000,16.12978400000,471143.46,5055742.57
Lepavina 03,HR00386569,HR0038656900,Croatia,Drava Sub-basin (Pannonian Basin),INA-Naftaplin Zagreb,New-field wildcat,26,Plugged & abandoned,Oil,P&A/Susp Dry/Shows,1958,6/20/1958,INA,INA,,,,KB,228.00,1737.70,Vertical,,Abandoned,Dry/Shows,13 April 1958,100000109753,Lp-3,46.11210600000,16.70989600000,516228.40,5108063.66
Lepavina 04,HR00386570,HR0038657000,Croatia,Drava Sub-basin (Pannonian Basin),INA-Naftaplin Zagreb,New-field wildcat,26,Plugged & abandoned,Oil,P&A/Susp Dry/Shows,1959,5/13/1959,INA,INA,,,,KB,217.00,1675.00,Vertical,,Abandoned,Dry/Shows,23 April 1959,100000109751,Lp-4,46.10983800000,16.70705400000,516009.38,5107811.02
Lepavina 09,HR00386575,HR0038657500,Croatia,Drava Sub-basin (Pannonian Basin),INA-Naftaplin Zagreb,Outpost,26,Plugged & abandoned,Oil,P&A/Susp Dry/Shows,1970,3/17/1970,INA,INA,,,Lepavina,KB,191.00,1773.40,,,Abandoned,Dry/Shows,12 February 1970,100000593954,Lp-9,46.11156400000,16.75177300000,519465.64,5108012.82
Lomnica 1,HR00381357,HR0038135700,Croatia,Sava Sub-basin (Pannonian Basin),INA-Naftaplin Zagreb,Geothermal,51,Completed,Oil,Water,1981,5/5/1981,INA,INA,,,,KB,115.00,1936.00,,,Completed,Water,01 May 1981,100000594183,Lom-1,45.72141800000,16.02000700000,462639.41,5064733.80
Lucanka 1,HR00381358,HR0038135800,Croatia,Sava Sub-basin (Pannonian Basin),INA-Naftaplin Zagreb,Geothermal,51,Completed,Oil,Water,1986,4/16/1986,INA,INA,,,,KB,122.00,950.00,,,Completed,Water,27 January 1986,100000594190,Luc-1,45.75485000000,15.87885000000,451680.14,5068524.86
Lukarisce 1,HR00386796,HR0038679600,Croatia,Sava Sub-basin (Pannonian Basin),INA-Naftaplin,New-field wildcat,39,Plugged & abandoned,Oil,P&A/Susp Dry/Shows,1995,11/9/1995,INA NAFT,INA NAFT,,,,KB,114.00,2100.00,,,Abandoned,Dry/Shows,25 September 1995,100000202459,Luk-1,45.81641700000,16.26170100000,481485.14,5075207.14
Mahovo 1,HR00386812,HR0038681200,Croatia,Sava Sub-basin (Pannonian Basin),INA-Naftaplin Zagreb,New-field wildcat,26,Plugged & abandoned,Oil,P&A/Susp Dry/Shows,1974,10/22/1974,INA,INA,,,,KB,98.00,2819.00,,,Abandoned,Dry/Shows,23 August 1974,100000594214,Mah-1,45.55915000000,16.41310900000,493220.22,5046592.06
Mahovo 2,HR00386813,HR0038681300,Croatia,Sava Sub-basin (Pannonian Basin),INA-Naftaplin Zagreb,New-field wildcat,26,Plugged & abandoned,Oil,P&A/Susp Dry/Shows,1987,2/6/1988,INA,INA,,,,KB,98.00,2500.00,,,Abandoned,Dry/Shows,29 November 1987,100000594215,Mah-2,45.56703200000,16.42102800000,493839.31,5047467.36
Marca 1,HR00386815,HR0038681500,Croatia,Sava Sub-basin (Pannonian Basin),INA-Naftaplin Zagreb,New-field wildcat,26,Plugged & abandoned,Oil,P&A/Susp Dry/Shows,1963,8/25/1963,INA,INA,,,,KB,112.00,728.00,,,Abandoned,Dry/Shows,08 August 1963,100000594216,Ma-1,45.76650500000,16.48926100000,499168.37,5069632.55
Martinska Ves 1,HR00386826,HR0038682600,Croatia,Sava Sub-basin (Pannonian Basin),INA-Naftaplin Zagreb,New-field wildcat,3,Completed,Oil,Completed Oil,1955,9/30/1955,INA,INA,,,Martinska Ves,KB,103.00,1829.00,Vertical,,Completed,Oil,21 July 1955,100000109697,,45.59270400000,16.34386000000,487821.32,5050329.16
Martinska Ves 2,HR00388576,HR0038857600,Croatia,Sava Sub-basin (Pannonian Basin),INA-Naftaplin Zagreb,Outpost,3,Completed,Oil,Completed Oil,1962,11/15/1962,INA,INA,,,Martinska Ves,KB,104.00,1731.00,Vertical,,Completed,Oil,05 October 1962,100000109693,,45.58344700000,16.37492000000,490243.08,5049296.16
Narta 1,HR00386946,HR0038694600,Croatia,Drava Sub-basin (Pannonian Basin),INA-Naftaplin Zagreb,New-field wildcat,26,Plugged & abandoned,Oil,P&A/Susp Dry/Shows,1963,2/18/1963,INA,INA,,,,KB,128.00,956.50,,,Abandoned,Dry/Shows,01 February 1963,100000594325,Nar-1,45.83479900000,16.80975500000,524067.20,5077269.10
Novaki Bizovack 1,HR00386956,HR0038695600,Croatia,Drava Sub-basin (Pannonian Basin),INA-Naftaplin Zagreb,New-field wildcat,26,Plugged & abandoned,Oil,P&A/Susp Dry/Shows,1986,5/4/1986,INA,INA,,,,KB,92.00,1977.00,,,Abandoned,Dry/Shows,06 April 1986,100000594334,Nb-1,45.57225300000,18.45426100000,652533.62,5049902.55
Novi Glog 1,HR00386957,HR0038695700,Croatia,Drava Sub-basin (Pannonian Basin),INA-Naftaplin,New-field wildcat,26,Plugged & abandoned,Oil,P&A/Susp Dry/Shows,1993,6/2/1993,INA NAFT,INA NAFT,,,,KB,160.00,1246.00,,,Abandoned,Dry/Shows,21 May 1993,100000162291,,45.96407100000,16.66839100000,513054.92,5091603.28
Osijek 2AL,HR00387259,HR0038725900,Croatia,Drava Sub-basin (Pannonian Basin),INA-Naftaplin Zagreb,New-field wildcat,40,Plugged & abandoned,Oil,P&A/Susp Dry/Shows,1972,12/8/1972,INA,INA,,,,KB,90.00,1326.80,,,Abandoned,Dry/Shows,01 December 1972,100000594597,Os-2AL,45.52599200000,18.69683800000,671607.35,5045251.58
Poganovci 1,HR00387300,HR0038730000,Croatia,Drava Sub-basin (Pannonian Basin),INA-Naftaplin Zagreb,New-field wildcat,26,Plugged & abandoned,Oil,P&A/Susp Dry/Shows,1963,4/25/1963,INA,INA,,,,KB,91.00,1641.50,,,Abandoned,Dry/Shows,22 March 1963,100000594638,Pog-1,45.50194700000,18.43356600000,651106.64,5042050.30
Posavski Bregi 1,HR00387308,HR0038730800,Croatia,Sava Sub-basin (Pannonian Basin),INA-Naftaplin,New-field wildcat,41,Plugged & abandoned,Oil,P&A/Susp Dry/Shows,1956,3/3/1957,INA NAFT,INA NAFT,,,,KB,16.00,2064.50,,,Abandoned,Dry/Shows,07 December 1956,100000594644,Pb-1,45.68412500000,16.35365200000,488603.87,5060487.62
Posavski Bregi 3,HR00388621,HR0038862100,Croatia,Sava Sub-basin (Pannonian Basin),INA-Naftaplin,New-field wildcat,26,Plugged & abandoned,Oil,P&A/Susp Dry/Shows,1977,9/6/1977,INA NAFT,INA NAFT,,,,KB,6.00,2187.79,,,Abandoned,Dry/Shows,13 August 1977,100000594646,Pb-3,45.68362100000,16.35320300000,488568.79,5060431.68
Posavski Bregi 3BE,HR00387311,HR0038731100,Croatia,Sava Sub-basin (Pannonian Basin),INA-Naftaplin,New-field wildcat,26,Plugged & abandoned,Oil,P&A/Susp Dry/Shows,1977,10/2/1977,INA NAFT,INA NAFT,,,,KB,6.00,2217.00,,,Abandoned,Dry/Shows,12 September 1977,100000594648,Pb-3BE,45.68362100000,16.35320300000,488568.79,5060431.68
Precec 1,HR00387313,HR0038731300,Croatia,Sava Sub-basin (Pannonian Basin),INA-Naftaplin Zagreb,New-field wildcat,26,Plugged & abandoned,Oil,P&A/Susp Dry/Shows,1963,1/17/1964,INA,INA,,,,KB,105.00,2233.00,,,Abandoned,Dry/Shows,01 November 1963,100000594649,Pre-1,45.72612700000,16.35007400000,488333.90,5065156.01
Precec 3,HR00387315,HR0038731500,Croatia,Sava Sub-basin (Pannonian Basin),INA-Naftaplin Zagreb,New-field wildcat,26,Plugged & abandoned,Oil,P&A/Susp Dry/Shows,1990,8/28/1990,INA,INA,,,,,0.00,2255.00,,,Abandoned,Dry/Shows,26 June 1990,100000594651,Pre-3,45.76141700000,16.32215800000,486169.73,5069082.42
Preseka 1,HR00388623,HR0038862300,Croatia,Sava Sub-basin (Pannonian Basin),INA-Naftaplin Zagreb,New-field wildcat,26,Plugged & abandoned,Oil,P&A/Susp Dry/Shows,1974,12/4/1974,INA,INA,,,,KB,103.00,2749.00,,,Abandoned,Dry/Shows,20 September 1974,100000594654,Prs-1,45.70113300000,16.23410900000,479298.33,5062401.76
Rasinja 1,HR00387359,HR0038735900,Croatia,Somogy Sub-basin (Pannonian Basin),INA-Naftaplin Zagreb,New-field wildcat,26,Plugged & abandoned,Oil,P&A/Susp Dry/Shows,1966,10/18/1966,INA,INA,,,,KB,278.00,1928.00,,,Abandoned,Dry/Shows,02 September 1966,100000594692,Ras-1,46.16844700000,16.72721200000,517549.01,5114329.25
Rasinja 2,HR00387360,HR0038736000,Croatia,Somogy Sub-basin (Pannonian Basin),INA-Naftaplin Zagreb,New-field wildcat,26,Plugged & abandoned,Oil,P&A/Susp Dry/Shows,1967,7/14/1967,INA,INA,,,,KB,257.00,1385.26,,,Abandoned,Dry/Shows,25 June 1967,100000594693,Ras-2,46.15293400000,16.68818700000,514539.58,5112597.20
Resnik 2,HR00381450,HR0038145000,Croatia,Sava Sub-basin (Pannonian Basin),INA-Naftaplin Zagreb,New-field wildcat,40,Plugged & abandoned,Oil,P&A/Susp Dry/Shows,1955,12/20/1955,INA,INA,,,,KB,108.00,1753.60,,,Abandoned,Dry/Shows,01 October 1955,100000594700,Re-2,45.77603400000,16.06491500000,466168.21,5070783.57
Sava 1,HR00381340,HR0038134000,Croatia,Sava Sub-basin (Pannonian Basin),INA-Naftaplin Zagreb,New-field wildcat,26,Plugged & abandoned,Oil,P&A/Susp Dry/Shows,1984,4/2/1984,INA,INA,,,,KB,121.00,1594.30,Vertical,,Abandoned,Dry/Shows,11 January 1984,100000109565,,45.77752100000,15.97979800000,459549.96,5070988.37
Setus 1,HR00387681,HR0038768100,Croatia,Sava Sub-basin (Pannonian Basin),INA-Naftaplin Zagreb,New-field wildcat,26,Plugged & abandoned,Oil,P&A/Susp Dry/Shows,1988,12/24/1988,INA,INA,,,,KB,102.00,2137.00,,,Abandoned,Dry/Shows,30 October 1988,100000595006,Set-1,45.56233900000,16.39716700000,491976.11,5046947.93
Stakorovec 1,HR00387693,HR0038769300,Croatia,Sava Sub-basin (Pannonian Basin),INA-Naftaplin Zagreb,New-field wildcat,26,Plugged & abandoned,Oil,P&A/Susp Dry/Shows,1957,9/26/1957,INA,INA,,,,KB,176.00,1366.80,,,Abandoned,Dry/Shows,03 September 1957,100000595016,St-1,45.85129300000,16.27689300000,482676.55,5079079.74
Stakorovec 2,HR00387695,HR0038769500,Croatia,Sava Sub-basin (Pannonian Basin),INA-Naftaplin Zagreb,New-field wildcat,26,Plugged & abandoned,Oil,P&A/Susp Dry/Shows,1958,10/19/1958,INA,INA,,,,KB,187.00,1739.70,,,Abandoned,Dry/Shows,09 August 1958,100000595018,St-2,45.86826700000,16.26986000000,482135.79,5080967.73
Subotica 1,HR00387777,HR0038777700,Croatia,Somogy Sub-basin (Pannonian Basin),INA-Naftaplin Zagreb,New-field wildcat,26,Plugged & abandoned,Oil,P&A/Susp Dry/Shows,1942,3/9/1942,INA,INA,,,,KB,232.00,1302.50,,,Abandoned,Dry/Shows,03 January 1942,100000595049,Su-1,46.17903500000,16.74520400000,518934.72,5115510.16
Subotica 2,HR00387778,HR0038777800,Croatia,Somogy Sub-basin (Pannonian Basin),INA-Naftaplin Zagreb,New-field wildcat,39,Plugged & abandoned,Oil,P&A/Susp Dry/Shows,1962,5/16/1962,INA,INA,,,,KB,185.00,1950.30,,,Abandoned,Dry/Shows,03 February 1962,100000595050,Su-2,46.16811200000,16.68465800000,514263.07,5114283.49
Subotica 3,HR00387779,HR0038777900,Croatia,Somogy Sub-basin (Pannonian Basin),INA-Naftaplin Zagreb,New-field wildcat,26,Plugged & abandoned,Oil,P&A/Susp Dry/Shows,1962,3/22/1963,INA,INA,,,,KB,212.00,2097.30,,,Abandoned,Dry/Shows,13 November 1962,100000595051,Su-3,46.16353900000,16.66689900000,512892.77,5113772.20
Subotica 4,HR00387780,HR0038778000,Croatia,Somogy Sub-basin (Pannonian Basin),INA-Naftaplin Zagreb,New-field wildcat,41,Plugged & abandoned,Oil,P&A/Susp Dry/Shows,1963,5/27/1963,INA,INA,,,,KB,172.00,1993.60,,,Abandoned,Dry/Shows,12 April 1963,100000595052,Su-4,46.16669300000,16.67601600000,513596.08,5114124.26
Subotica 5,HR00387781,HR0038778100,Croatia,Somogy Sub-basin (Pannonian Basin),INA-Naftaplin Zagreb,New-field wildcat,26,Plugged & abandoned,Oil,P&A/Susp Dry/Shows,1963,8/6/1963,INA,INA,,,,KB,182.00,2090.40,,,Abandoned,Dry/Shows,08 June 1963,100000595053,Su-5,46.16391100000,16.65599200000,512050.38,5113811.83
Tenjski Antunovac 1,HR00387917,HR0038791700,Croatia,Drava Sub-basin (Pannonian Basin),INA-Naftaplin Zagreb,New-field wildcat,26,Plugged & abandoned,Oil,P&A/Susp Dry/Shows,1958,7/1/1958,INA,INA,,,,KB,89.00,2140.80,,,Abandoned,Dry/Shows,19 March 1958,100000595207,Te-1,45.49868700000,18.67397100000,669903.31,5042168.55
Topolovac 1,HR00387919,HR0038791900,Croatia,Drava Sub-basin (Pannonian Basin),INA-Naftaplin Zagreb,New-field wildcat,26,Plugged & abandoned,Oil,P&A/Susp Dry/Shows,1963,10/2/1963,INA,INA,,,,KB,181.00,1234.70,,,Abandoned,Dry/Shows,10 September 1963,100000595209,To-1,46.06103500000,16.76079200000,520181.22,5102399.18
Vera 1,HR00387946,HR0038794600,Croatia,Drava Sub-basin (Pannonian Basin),INA-Naftaplin Zagreb,New-field wildcat,26,Plugged & abandoned,Oil,P&A/Susp Dry/Shows,1963,6/11/1963,INA,INA,,,,KB,88.00,1443.00,,,Abandoned,Dry/Shows,24 May 1963,100000595232,Ve-1,45.44689300000,18.86854400000,685279.13,5036842.92
Vrbovec 1,HR00384963,HR0038496300,Croatia,Sava Sub-basin (Pannonian Basin),INA-Naftaplin Zagreb,New-field wildcat,41,Plugged & abandoned,Oil,P&A/Susp Dry/Shows,1953,9/3/1953,INA,INA,,,,KB,110.00,203.70,,,Abandoned,Dry/Shows,29 August 1953,100000595271,Vr-1,45.86592500000,16.44449200000,495693.89,5080683.19
Vrbovec 2,HR00388656,HR0038865600,Croatia,Sava Sub-basin (Pannonian Basin),INA-Naftaplin Zagreb,New-field wildcat,39,Plugged & abandoned,Oil,P&A/Susp Dry/Shows,1954,8/31/1954,INA,INA,,,,KB,114.00,1086.00,,,Abandoned,Dry/Shows,30 July 1954,100000595272,Vr-2,45.84549600000,16.39644700000,491960.61,5078416.48
Vrbovec 3,HR00387986,HR0038798600,Croatia,Sava Sub-basin (Pannonian Basin),INA-Naftaplin Zagreb,New-field wildcat,26,Plugged & abandoned,Oil,P&A/Susp Dry/Shows,1955,9/1/1955,INA,INA,,,,KB,108.00,1584.50,,,Abandoned,Dry/Shows,06 July 1955,100000595273,Vr-3,45.83387100000,16.35417500000,488674.95,5077129.64
Zagreb Salata 1,HR00424185,HR0042418500,Croatia,Sava Sub-basin (Pannonian Basin),INA-Naftaplin Zagreb,Geothermal,51,Completed,Oil,Water,1981,10/1/1981,INA,INA,,,,KB,128.00,1034.62,,,Completed,Water,16 August 1981,100000595284,SALt-1,45.81595200000,15.98474600000,459962.28,5075256.95
Zutica 001ZA,HR00387998,HR0038799800,Croatia,Sava Sub-basin (Pannonian Basin),INA-Naftaplin Zagreb,Outpost,41,Plugged & abandoned,Oil,P&A/Susp Dry/Shows,1973,6/8/1973,INA,INA,,,Zutica,KB,103.00,2548.00,,,Abandoned,Dry/Shows,18 May 1973,100000595298,Zu-1ZA,45.64230400000,16.38507000000,491044.51,5055835.91
,,,,,,,,,,,,,,,,,,,,,,,,,,,,,,,
,,,,,,,,,,,,,,,,,,,,,,,,,,,,,,,
,,,,,,,,,,,,,,,,,,,,,,,,,,,,,,,
,,,,,,,,,,,,,,,,,,,,,,,,,,,,,,,
,Dave Imput CWDB,,,,,,,,,,,,,,,,,,,,,,,,,,,,,,
,Luis Manual creation,,,,,,,,,,,,,,,,,,,,,,,,,,,,,,
